{
  "ports": [
    {
      "name": "Houston",
      "latitude": 28.99,
      "longitude": -94.43
    },
    {
      "name": "Chiba",
      "latitude": 35.59,
      "longitude": 140.08
    },
    {
      "name": "Bonny",
      "latitude": 4.42,
      "longitude": 7.13
    },
    {
      "name": "Rotterdam",
      "latitude": 51.9,
      "longitude": 4.47
    },
    {
      "name": "Los Angeles",
      "latitude": 33.72,
      "longitude": -118.28
    },
    {
      "name": "Singapore",
      "latitude": 1.27,
      "longitude": 103.83
    }
  ]
}
